[{"id":3,"name":"Scripps Green Hospital","parent_id":1,"descendant_ids":[],"url":"/locations/hospitals__scripps-green-hospital","thumbnail":"//www.scripps.org//sparkle-assets/images/ptn_greenhospital_600x375.jpg","addresses":[{"id":7084,"name":"Scripps Green Hospital","address":"10666 N. Torrey Pines Rd. ","city":"La Jolla","state":"CA","full_state_name":"California","postal_code":"92037","country":"US","full_country_name":"United States","lat":32.8984,"lng":-117.243,"phone_number":"858-554-9100"}]},{"id":4,"name":"Scripps Memorial Hospital Encinitas","parent_id":1,"descendant_ids":[],"url":"/locations/hospitals__scripps-memorial-hospital-encinitas","thumbnail":"//www.scripps.org//sparkle-assets/images/ptn_encinitas_600_x_375.jpg","addresses":[{"id":7087,"name":"Scripps Memorial Hospital Encinitas","address":"354 Santa Fe Drive ","city":"Encinitas","state":"CA","full_state_name":"California","postal_code":"92024","country":"US","full_country_name":"United States","lat":33.0369,"lng":-117.284,"phone_number":"760-633-6501"}]},{"id":8,"name":"Scripps Memorial Hospital La Jolla","parent_id":1,"descendant_ids":[],"url":"/locations/hospitals__scripps-memorial-hospital-la-jolla","thumbnail":"//www.scripps.org//sparkle-assets/images/ptn_la_jolla_600_x_375.jpg","addresses":[{"id":611357,"name":"Scripps Memorial Hospital La Jolla","address":"9888 Genesee Avenue ","city":"La Jolla","state":"CA","full_state_name":"California","postal_code":"92037","country":"US","full_country_name":"United States","lat":32.8852,"lng":-117.225,"phone_number":"858-626-4123"}]},{"id":21,"name":"Scripps Mercy Hospital","parent_id":1,"descendant_ids":[155,156],"url":"/locations/hospitals__scripps-mercy-hospital","addresses":[]},{"id":157,"name":"Scripps Clinic Mission Valley - Building 7425 ","parent_id":59,"descendant_ids":[],"url":"/locations/scripps-clinic__scripps-clinic-mission-valley__building-7425","thumbnail":"//www.scripps.org//sparkle-assets/images/ptn_scrippsclinicmissionvalley_7425missionvalleyrd_600x375.jpg","addresses":[{"id":611344,"name":"Scripps Clinic Mission Valley","address":"7425 Mission Valley Road ","city":"San Diego","state":"CA","full_state_name":"California","postal_code":"92108","country":"US","full_country_name":"United States","lat":32.7778,"lng":-117.16,"phone_number":"619-245-2350"}]},{"id":158,"name":"Scripps Clinic Mission Valley - Building 7565","parent_id":59,"descendant_ids":[],"url":"/locations/scripps-clinic__scripps-clinic-mission-valley__building-7565","thumbnail":"//www.scripps.org//sparkle-assets/images/ptn_scrippsclinicmissionvalley_7565missionvalleyroad_600x375.jpg","addresses":[{"id":611345,"name":"Scripps Clinic Mission Valley","address":"7565 Mission Valley Road ","city":"San Diego","state":"CA","full_state_name":"California","postal_code":"92108","country":"US","full_country_name":"United States","lat":32.7792,"lng":-117.159,"phone_number":"619-245-2350"}]},{"id":159,"name":"Scripps Clinic Rancho San Diego - Calle Verde","parent_id":62,"descendant_ids":[],"url":"/locations/scripps-clinic__scripps-clinic-rancho-san-diego__calle-verde","thumbnail":"//www.scripps.org//sparkle-assets/images/ptn_scrippsclinicranchosandiego_10862_calle_verde_600x375a.jpg","addresses":[{"id":611346,"name":"Scripps Clinic Rancho San Diego","address":"10862 Calle Verde ","city":"La Mesa","state":"CA","full_state_name":"California","postal_code":"91941","country":"US","full_country_name":"United States","lat":32.7489,"lng":-116.96,"phone_number":"619-670-5400"}]},{"id":160,"name":"Scripps Clinic Rancho San Diego - Avocado Blvd.","parent_id":62,"descendant_ids":[],"url":"/locations/scripps-clinic__scripps-clinic-rancho-san-diego__avocado-blvd","thumbnail":"//www.scripps.org//sparkle-assets/images/ptn_scrippsclinicranchosandiego_3835avocadoblvd_600x375a.jpg","addresses":[{"id":611347,"name":"Scripps Clinic Rancho San Diego","address":"3835 Avocado Blvd ","city":"La Mesa","state":"CA","full_state_name":"California","postal_code":"91941","country":"US","full_country_name":"United States","lat":32.7488,"lng":-116.961,"phone_number":"619-670-5400"}]},{"id":161,"name":"Scripps Clinic La Jolla - Genesee Executive Plaza","parent_id":68,"descendant_ids":[],"url":"/locations/scripps-clinic__scripps-clinic-la-jolla__genesee-executive-plaza","thumbnail":"//www.scripps.org//sparkle-assets/images/ptn_scrippscliniclajolla_9333geneseeave_600x375.jpg","addresses":[{"id":611348,"name":"Scripps Clinic La Jolla - Genesee Executive Plaza","address":"9333 Genesee Avenue ","city":"San Diego","state":"CA","full_state_name":"California","postal_code":"92121","country":"US","full_country_name":"United States","lat":32.8756,"lng":-117.213,"phone_number":"858-882-8350"}]},{"id":162,"name":"Scripps Clinic La Jolla - Poole Building","parent_id":68,"descendant_ids":[],"url":"/locations/scripps-clinic__scripps-clinic-la-jolla__poole-building","thumbnail":"//www.scripps.org//sparkle-assets/images/ptn_scrippscliniclajolla_9833genesee_poolebuilding_600x375.jpg","addresses":[{"id":611349,"name":"Scripps Clinic La Jolla - Poole Building","address":"9834 Genesee Avenue ","city":"San Diego","state":"CA","full_state_name":"California","postal_code":"92121","country":"US","full_country_name":"United States","lat":32.8839,"lng":-117.226,"phone_number":"858-554-7550"}]},{"id":163,"name":"Scripps Clinic OB-GYN La Jolla Campus","parent_id":68,"descendant_ids":[],"url":"/locations/scripps-clinic__scripps-clinic-la-jolla__campus-ob-gyn","thumbnail":"//www.scripps.org//sparkle-assets/images/ptn_scrippscliniclajolla_9850geneseeave_600x375.jpg","addresses":[{"id":611350,"name":"Scripps Clinic OB-GYN La Jolla Campus","address":"9850 Genesee Avenue, Suite 600 ","city":"La Jolla","state":"CA","full_state_name":"California","postal_code":"92121","country":"US","full_country_name":"United States","lat":32.8829,"lng":-117.226,"phone_number":"858-554-7700"}]},{"id":164,"name":"Scripps Coastal Medical Center - North Coast Health Center","parent_id":114,"descendant_ids":[],"url":"/locations/scripps-coastal-medical-center__scripps-coastal-medical-center-encinitas__north-coast-health-center","thumbnail":"//www.scripps.org//sparkle-assets/images/ptn_scrippscoastalencinitas_477northelcaminoreal_600x375.jpg","addresses":[{"id":611351,"name":"Scripps Coastal Medical Center - North Coast Health Center","address":"477 N. El Camino Real Suites 208A and 303B","city":"Encinitas","state":"CA","full_state_name":"California","postal_code":"92024","country":"US","full_country_name":"United States","lat":33.057,"lng":-117.262,"phone_number":"760-479-3900"}]},{"id":165,"name":"Scripps Coastal Medical Center Encinitas - Saxony Road - OB-GYN","parent_id":114,"descendant_ids":[],"url":"/locations/scripps-coastal-medical-center__scripps-coastal-medical-center-encinitas__saxony-road","thumbnail":"//www.scripps.org//sparkle-assets/images/ptn_scrippscoastalencinitas_345saxonyrd_600x375.jpg","addresses":[{"id":611352,"name":"Scripps Coastal Medical Center Encinitas ","address":"345 Saxony Road, Suite 205 ","city":"Encinitas","state":"CA","full_state_name":"California","postal_code":"92024","country":"US","full_country_name":"United States","lat":33.0535,"lng":-117.284,"phone_number":"760-901-5200"}]},{"id":166,"name":"Scripps Coastal Medical Center Encinitas - Santa Fe Drive - OB-GYN","parent_id":114,"descendant_ids":[],"url":"/locations/scripps-coastal-medical-center__scripps-coastal-medical-center-encinitas__santa-fe-drive","thumbnail":"//www.scripps.org//sparkle-assets/images/ptn_scrippscoastalencinitas_332santafedrive_600x375.jpg","addresses":[{"id":611353,"name":"Scripps Coastal Medical Center Encinitas","address":"332 Santa Fe Dr. Suite 115","city":"Encinitas","state":"CA","full_state_name":"California","postal_code":"92024","country":"US","full_country_name":"United States","lat":33.0364,"lng":-117.285,"phone_number":"760-901-5155"}]},{"id":167,"name":"Scripps Coastal Medical Center Oceanside - Mission Avenue","parent_id":117,"descendant_ids":[],"url":"/locations/scripps-coastal-medical-center__scripps-coastal-medical-center-oceanside__mission-avenue","thumbnail":"//www.scripps.org//sparkle-assets/images/ptn_scrippscoastaloceanside_4318missionave_600x375.jpg","addresses":[{"id":611354,"name":"Scripps Coastal Medical Center Oceanside","address":"4318 Mission Avenue ","city":"Oceanside","state":"CA","full_state_name":"California","postal_code":"92057","country":"US","full_country_name":"United States","lat":33.2301,"lng":-117.311,"phone_number":"760-806-5486"}]},{"id":168,"name":"Scripps Coastal Medical Center Oceanside - Vista Way","parent_id":117,"descendant_ids":[],"url":"/locations/scripps-coastal-medical-center__scripps-coastal-medical-center-oceanside__vista-way","thumbnail":"//www.scripps.org//sparkle-assets/images/ptn_scrippscoastaloceanside_3998vistaway_600x375.jpg","addresses":[{"id":611355,"name":"Scripps Coastal Medical Center Oceanside","address":"3998 Vista Way, Suite C-202 ","city":"Oceanside","state":"CA","full_state_name":"California","postal_code":"92056","country":"US","full_country_name":"United States","lat":33.1843,"lng":-117.293,"phone_number":"760-901-5200"}]},{"id":1,"name":"Hospitals","descendant_ids":[3,4,8,21,155,156],"url":"/locations/hospitals","addresses":[]},{"id":57,"name":"Scripps Clinic Carmel Valley","parent_id":2,"descendant_ids":[],"url":"/locations/scripps-clinic__scripps-clinic-carmel-valley","thumbnail":"//www.scripps.org//sparkle-assets/images/ptn_scrippscliniccarmelvalley_3811valleycenterdrive_600x375.jpg","addresses":[{"id":7091,"name":"Valley Centre Drive","address":"3811 Valley Centre Drive ","city":"San Diego","state":"CA","full_state_name":"California","postal_code":"92130","country":"US","full_country_name":"United States","lat":32.9367,"lng":-117.232,"phone_number":"858-764-3000"}]},{"id":77,"name":"Scripps City Heights Wellness Center","parent_id":29,"descendant_ids":[],"url":"/locations/well-being-centers__scripps-city-heights-wellness-center","thumbnail":"//www.scripps.org//sparkle-assets/images/ptn_scrippscityheightswellnesscenter_4440wightmanst_600x375.jpg","addresses":[{"id":7117,"name":"Scripps City Heights Wellness Center ","address":"4440 Wightman St. Ste 200","city":"San Diego","state":"CA","full_state_name":"California","postal_code":"92105","country":"US","full_country_name":"United States","lat":32.7484,"lng":-117.099,"phone_number":"619-321-2920"}]},{"id":132,"name":"Scripps Green Sports and Physical Therapy","parent_id":136,"descendant_ids":[],"url":"/locations/specialty-centers__scripps-green-sports-and-physical-therapy","thumbnail":"//www.scripps.org//sparkle-assets/images/ptn_scrippsgreenoutpatientrehabservices_9191townecentredr_600x375.jpg","addresses":[{"id":29395,"name":"Outpatient Rehab Services","address":"9191 Towne Centre Drive Suite 105","city":"San Diego","state":"CA","full_state_name":"California","postal_code":"92122","country":"US","full_country_name":"United States","lat":32.8737,"lng":-117.206,"phone_number":"858-554-3711"}]},{"id":140,"name":"Scripps Coastal Medical Center Alvarado Court","parent_id":98,"descendant_ids":[],"url":"/locations/scripps-coastal-medical-center__scripps-coastal-medical-center-alvarado-court","thumbnail":"//www.scripps.org//sparkle-assets/images/ptn_scrippscoastalalvarado_6386alvaradoct_600x375.jpg","addresses":[{"id":145266,"name":"Alvarado Court","address":"6386 Alvarado Court,  Suite 310","city":"San Diego","state":"CA","full_state_name":"California","postal_code":"92120","country":"US","full_country_name":"United States","lat":32.7762,"lng":-117.06,"phone_number":"619-452-7400"}]},{"id":156,"name":"Scripps Mercy Hospital Chula Vista","parent_id":21,"descendant_ids":[],"url":"/locations/hospitals__scripps-mercy-hospital__chula-vista","thumbnail":"//www.scripps.org//sparkle-assets/images/ptn_scrippsmercychulavista_600x375.jpg","addresses":[{"id":611343,"name":"Scripps Mercy Hospital Chula Vista","address":"435 H Street  ","city":"Chula Vista","state":"CA","full_state_name":"California","postal_code":"91910","country":"US","full_country_name":"United States","lat":32.6336,"lng":-117.083,"phone_number":"619-691-7000"}]},{"id":2,"name":"Scripps Clinic","descendant_ids":[57,58,59,61,62,63,64,66,67,68,137,148,157,158,159,160,161,162,163,169],"url":"/locations/scripps-clinic","thumbnail":"//www.scripps.org//sparkle-assets/images/ptn_scripps_clinic_landing_page.jpg","addresses":[]},{"id":67,"name":"Scripps Clinic Coronado","parent_id":2,"descendant_ids":[],"url":"/locations/scripps-clinic__scripps-clinic-coronado","thumbnail":"//www.scripps.org//sparkle-assets/images/ptn_scrippscliniccoronado_1317a-ynez-place_600x375.jpg","addresses":[{"id":7101,"name":"Coronado","address":"1317-A Ynez Place ","city":"Coronado","state":"CA","full_state_name":"California","postal_code":"92118","country":"US","full_country_name":"United States","lat":32.684,"lng":-117.178,"phone_number":"858-554-9493"}]},{"id":74,"name":"Scripps Well Being Center, Chula Vista","parent_id":29,"descendant_ids":[],"url":"/locations/well-being-centers__scripps-well-being-center-chula-vista","thumbnail":"//www.scripps.org//sparkle-assets/images/ptn_scrippswellbeingcenterchulavista_237churchave_600x375.jpg","addresses":[{"id":7114,"name":"Scripps Well Being Center, Chula Vista","address":"237 Church Avenue  ","city":"Chula Vista","state":"CA","full_state_name":"California","postal_code":"91910","country":"US","full_country_name":"United States","lat":32.6438,"lng":-117.079,"phone_number":"619-862-6600"}]},{"id":119,"name":"Scripps Coastal Medical Center Carlsbad ","parent_id":98,"descendant_ids":[],"url":"/locations/scripps-coastal-medical-center__scripps-coastal-medical-center-carlsbad","thumbnail":"//www.scripps.org//sparkle-assets/images/ptn_scrippscoastalcarlsbad_2176salkave_600x375.jpg","addresses":[{"id":10466,"name":"Salk Avenue","address":"2176 Salk Avenue ","city":"Carlsbad","state":"CA","full_state_name":"California","postal_code":"92008","country":"US","full_country_name":"United States","lat":33.1404,"lng":-117.278,"phone_number":"760-827-7200"}]},{"id":133,"name":"Scripps Memorial Encinitas Outpatient Physical Rehabilitation","parent_id":136,"descendant_ids":[],"url":"/locations/specialty-centers__scripps-memorial-encinitas-outpatient-physical-rehabilitation","thumbnail":"//www.scripps.org//sparkle-assets/images/ptn_scrippsmemorialencinitasoutpatientphysicalrehab_435-santa-fe-dr_600x375.jpg","addresses":[{"id":29397,"name":"Outpatient Rehab Services","address":"435 Santa Fe Drive ","city":"Encinitas","state":"CA","full_state_name":"California","postal_code":"92024","country":"US","full_country_name":"United States","lat":33.0361,"lng":-117.284,"phone_number":"760-633-6035"}]},{"id":155,"name":"Scripps Mercy Hospital San Diego","parent_id":21,"descendant_ids":[],"url":"/locations/hospitals__scripps-mercy-hospital__san-diego","thumbnail":"//www.scripps.org//sparkle-assets/images/ptn_scrippsmercysandiego_600x375.jpg","addresses":[{"id":611342,"name":"Scripps Mercy Hospital San Diego","address":"4077 5th Avenue ","city":"San Diego","state":"CA","full_state_name":"California","postal_code":"92103","country":"US","full_country_name":"United States","lat":32.7515,"lng":-117.16,"phone_number":"619-294-8111"}]},{"id":66,"name":"Scripps Clinic Del Mar","parent_id":2,"descendant_ids":[],"url":"/locations/scripps-clinic__scripps-clinic-del-mar","thumbnail":"//www.scripps.org//sparkle-assets/images/ptn_scrippsclinicdelmar_12395elcaminoreal_600x375.jpg","addresses":[{"id":27782,"name":"El Camino Real ","address":"12395 El Camino Real  ","city":"San Diego","state":"CA","full_state_name":"California","postal_code":"92130","country":"US","full_country_name":"United States","lat":32.9429,"lng":-117.239,"phone_number":"858-793-2727"}]},{"id":75,"name":"Scripps Well Being Center, Encinitas","parent_id":29,"descendant_ids":[],"url":"/locations/well-being-centers__scripps-well-being-center-encinitas","thumbnail":"//www.scripps.org//sparkle-assets/images/ptn_scrippswellbeingcenter_681encinitasblvd_600x375.jpg","addresses":[{"id":9673,"name":"Scripps Well Being Center, Encinitas","address":"Westlake Professional Center 681 Encinitas Blvd, Suite 307","city":"Encinitas","state":"CA","full_state_name":"California","postal_code":"92024","country":"US","full_country_name":"United States","lat":33.037,"lng":-117.292,"phone_number":"760-633-6791"}]},{"id":98,"name":"Scripps Coastal Medical Center","descendant_ids":[114,116,117,118,119,120,121,140,146,164,165,166,167,168],"url":"/locations/scripps-coastal-medical-center","thumbnail":"//www.scripps.org//sparkle-assets/images/ptn_scripps_coastal_landing_page.jpg","addresses":[]},{"id":134,"name":"Scripps Mercy San Diego Outpatient Physical Rehabilitation","parent_id":136,"descendant_ids":[],"url":"/locations/specialty-centers__scripps-mercy-san-diego-outpatient-physical-rehabilitation","thumbnail":"//www.scripps.org//sparkle-assets/images/ptn_scrippsmercysandiegooutpatientrehab_4094fourthave_600x375.jpg","addresses":[{"id":29399,"name":"Physical Rehabilitation and Occupational Therapy ","address":"4094 4th Ave. Suite 300","city":"San Diego","state":"CA","full_state_name":"California","postal_code":"92103","country":"US","full_country_name":"United States","lat":32.7516,"lng":-117.162,"phone_number":"619-849-4470"}]},{"id":58,"name":"Scripps Clinic Encinitas","parent_id":2,"descendant_ids":[],"url":"/locations/scripps-clinic__scripps-clinic-encinitas","thumbnail":"//www.scripps.org//sparkle-assets/images/ptn_scrippsclinicencinitas_310santafedrive_600x375.jpg","addresses":[{"id":7092,"name":"Santa Fe Drive","address":"310 Santa Fe Drive ","city":"Encinitas","state":"CA","full_state_name":"California","postal_code":"92024","country":"US","full_country_name":"United States","lat":33.0362,"lng":-117.286,"phone_number":"760-753-5594"}]},{"id":76,"name":"Scripps Mende Well Being Center, La Jolla","parent_id":29,"descendant_ids":[],"url":"/locations/well-being-centers__scripps-mende-well-being-center-la-jolla","thumbnail":"//www.scripps.org//sparkle-assets/images/ptn_scrippsmendewellbeingcenter_4305lajollavillagedr_600x375.jpg","addresses":[{"id":7116,"name":"Scripps Mende Well Being Center, La Jolla","address":"4305 La Jolla Village Drive  Suite L-5","city":"San Diego","state":"CA","full_state_name":"California","postal_code":"92122","country":"US","full_country_name":"United States","lat":32.8736,"lng":-117.21,"phone_number":"858-626-7024"}]},{"id":120,"name":"Scripps Coastal Medical Center Eastlake","parent_id":98,"descendant_ids":[],"url":"/locations/scripps-coastal-medical-center__scripps-coastal-medical-center-eastlake","thumbnail":"//www.scripps.org//sparkle-assets/images/ptn_scrippscoastaleastlake_971laneave_600x375.jpg","addresses":[{"id":10490,"name":"Lane Avenue","address":"971 Lane Ave. ","city":"Chula Vista","state":"CA","full_state_name":"California","postal_code":"91914","country":"US","full_country_name":"United States","lat":32.6502,"lng":-116.96,"phone_number":"619-502-7300"}]},{"id":135,"name":"Scripps Mercy Chula Vista Outpatient Physical Rehabilitation","parent_id":136,"descendant_ids":[],"url":"/locations/specialty-centers__scripps-mercy-chula-vista-outpatient-physical-rehabilitation","thumbnail":"//www.scripps.org//sparkle-assets/images/ptn_scrippsmercychulavistaoutpatientrehab_450-4th-st_600x375.jpg","addresses":[{"id":29404,"name":"Physical Rehab","address":"450 4th Street Suite 212","city":"Chula Vista","state":"CA","full_state_name":"California","postal_code":"91910","country":"US","full_country_name":"United States","lat":32.6806,"lng":-117.104,"phone_number":"619-862-6652"}]},{"id":136,"name":"Specialty Centers","descendant_ids":[131,132,133,134,135,138,139,141,142,143,144,145,147,149,150,151,152,154],"url":"/locations/specialty-centers","addresses":[]},{"id":29,"name":"Well Being Centers","descendant_ids":[74,75,76,77],"url":"/locations/well-being-centers","addresses":[]},{"id":114,"name":"Scripps Coastal Medical Center Encinitas","parent_id":98,"descendant_ids":[164,165,166],"url":"/locations/scripps-coastal-medical-center__scripps-coastal-medical-center-encinitas","addresses":[]},{"id":137,"name":"Scripps Clinic Hillcrest","parent_id":2,"descendant_ids":[169],"url":"/locations/scripps-clinic__scripps-clinic-hillcrest","thumbnail":"//www.scripps.org//sparkle-assets/images/ptn_scrippsclinichillcrest_4020fifthave_1300x800.jpg","addresses":[{"id":83734,"name":"Scripps Clinic Hillcrest","address":"4020 Fifth Avenue Suite 401","city":"San Diego","state":"CA","full_state_name":"California","postal_code":"92103","country":"US","full_country_name":"United States","lat":32.7504,"lng":-117.161,"phone_number":"619-849-4469"}]},{"id":141,"name":"Scripps Memorial Hospital La Jolla Outpatient Imaging Pavilion","parent_id":136,"descendant_ids":[],"url":"/locations/specialty-centers__scripps-memorial-hospital-la-jolla-outpatient-imaging-pavilion","thumbnail":"//www.scripps.org//sparkle-assets/images/ptn_scrippsmemoriallajollaoutpatientimaging_9838geneseeave_600x375.jpg","addresses":[{"id":200553,"name":"Imaging Pavilion","address":"9838 Genesee Avenue ","city":"La Jolla","state":"CA","full_state_name":"California","postal_code":"92037","country":"US","full_country_name":"United States","lat":32.8848,"lng":-117.223,"phone_number":"858-626-6800"}]},{"id":68,"name":"Scripps Clinic La Jolla ","parent_id":2,"descendant_ids":[161,162,163],"url":"/locations/scripps-clinic__scripps-clinic-la-jolla","addresses":[]},{"id":121,"name":"Scripps Coastal Medical Center Escondido","parent_id":98,"descendant_ids":[],"url":"/locations/scripps-coastal-medical-center__scripps-coastal-medical-center-escondido","thumbnail":"//www.scripps.org//sparkle-assets/images/ptn_scripps-coastal_escondido_600x375.jpg","addresses":[{"id":12674,"name":"East Valley Parkway","address":"488 E. Valley Pkwy., Suite 411 ","city":"Escondido","state":"CA","full_state_name":"California","postal_code":"92025","country":"US","full_country_name":"United States","lat":33.1256,"lng":-117.077,"phone_number":"760-806-5700"}]},{"id":149,"name":"Scripps Memorial Encinitas Outpatient Imaging ","parent_id":136,"descendant_ids":[],"url":"/locations/specialty-centers__scripps-memorial-encinitas-outpatient-imaging","addresses":[{"id":441137,"name":"Outpatient Imaging","address":"320 Santa Fe Drive Suite LL8","city":"Encinitas","state":"CA","full_state_name":"California","postal_code":"92024","country":"US","full_country_name":"United States","lat":33.039,"lng":-117.286,"phone_number":"760-633-7770"}]},{"id":59,"name":"Scripps Clinic Mission Valley","parent_id":2,"descendant_ids":[157,158],"url":"/locations/scripps-clinic__scripps-clinic-mission-valley","addresses":[]},{"id":116,"name":"Scripps Coastal Medical Center Hillcrest","parent_id":98,"descendant_ids":[],"url":"/locations/scripps-coastal-medical-center__scripps-coastal-medical-center-hillcrest","thumbnail":"//www.scripps.org//sparkle-assets/images/ptn_scrippscoastalhillcrest_501washingtonst_600x375.jpg","addresses":[{"id":8966,"name":"Washington Street","address":"501 Washington Street Suites 525 and 600","city":"San Diego","state":"CA","full_state_name":"California","postal_code":"92103","country":"US","full_country_name":"United States","lat":32.7497,"lng":-117.16,"phone_number":"619-278-3300"}]},{"id":150,"name":"Scripps Mercy Hospital Chula Vista Outpatient Imaging","parent_id":136,"descendant_ids":[],"url":"/locations/specialty-centers__scripps-mercy-hospital-chula-vista-outpatient-imaging","addresses":[{"id":441138,"name":"Scripps Mercy Hospital Chula Vista Outpatient Imaging","address":"480 4th Avenue ","city":"Chula Vista","state":"CA","full_state_name":"California","postal_code":"91910","country":"US","full_country_name":"United States","lat":32.6339,"lng":-117.082,"phone_number":"858-626-6800"}]},{"id":117,"name":"Scripps Coastal Medical Center Oceanside","parent_id":98,"descendant_ids":[167,168],"url":"/locations/scripps-coastal-medical-center__scripps-coastal-medical-center-oceanside","addresses":[]},{"id":122,"name":"Corporate Office","descendant_ids":[],"url":"/locations/corporate-office","thumbnail":"//www.scripps.org//sparkle-assets/images/ptn_scrippscorporateoffice_600x375.jpg","addresses":[{"id":21048,"name":"Main","address":"4275 Campus Point Court ","city":"San Diego","state":"CA","full_state_name":"California","postal_code":"92121","country":"US","full_country_name":"United States","lat":32.8872,"lng":-117.224,"phone_number":"800-727-4777"}]},{"id":151,"name":"O'Toole Breast Care Center","parent_id":136,"descendant_ids":[],"url":"/locations/specialty-centers__o-toole-breast-care-center","thumbnail":"//www.scripps.org//sparkle-assets/images/ptn_o_toolebreastcarecenter_600x375.jpg","addresses":[{"id":474877,"name":"O\u2019Toole Breast Care Center","address":"4077 5th Avenue ","city":"San Diego","state":"CA","full_state_name":"California","postal_code":"92103","country":"US","full_country_name":"United States","lat":32.7515,"lng":-117.16,"phone_number":"619-862-6500"}]},{"id":169,"name":"Scripps Clinic OB-GYN Fifth Avenue","parent_id":137,"descendant_ids":[],"url":"/locations/scripps-clinic__scripps-clinic-hillcrest__scripps-clinic-ob-gyn-fifth-avenue","thumbnail":"//www.scripps.org//sparkle-assets/images/ptn_5th-avenue-ob-gyn-clinic_1300x800a.jpg.jpg","addresses":[{"id":658559,"name":"Scripps Clinic OB-GYN 5th Avenue","address":"2918 5th Avenue Suite 100","city":"San Diego","state":"CA","full_state_name":"California","postal_code":"92103","country":"US","full_country_name":"United States","lat":32.7358,"lng":-117.161,"phone_number":"619-688-0770"}]},{"id":61,"name":"Scripps Clinic Rancho Bernardo","parent_id":2,"descendant_ids":[],"url":"/locations/scripps-clinic__scripps-clinic-rancho-bernardo","thumbnail":"//www.scripps.org//sparkle-assets/images/ptn_scrippsclinicrb_15004innovationdrive_600x375.jpg","addresses":[{"id":7095,"name":"Innovation Drive","address":"15004 Innovation Drive ","city":"San Diego","state":"CA","full_state_name":"California","postal_code":"92128","country":"US","full_country_name":"United States","lat":32.9891,"lng":-117.078,"phone_number":"858-487-1800"}]},{"id":146,"name":"Scripps Coastal Medical Center Solana Beach","parent_id":98,"descendant_ids":[],"url":"/locations/scripps-coastal-medical-center__scripps-coastal-medical-center-solana-beach","thumbnail":"//www.scripps.org//sparkle-assets/images/ptn_solana_beach_exterior_600_x_375.jpg","addresses":[{"id":343259,"name":"Scripps Coastal Medical Center Solana Beach","address":"380 Stevens Ave.  Suite 100","city":"Solana Beach","state":"CA","full_state_name":"California","postal_code":"92075","country":"US","full_country_name":"United States","lat":32.9935,"lng":-117.262,"phone_number":"858-554-9800"}]},{"id":152,"name":"Emily Fenton Hunte Breast Care Center","parent_id":136,"descendant_ids":[],"url":"/locations/specialty-centers__emily-fenton-hunte-breast-care-center","thumbnail":"//www.scripps.org//sparkle-assets/images/ptn_fenton_hunte_breast_care_center_lobby_600_x_375.jpg","addresses":[{"id":475599,"name":"Emily Fenton Hunte Breast Care Center","address":" 10666 N. Torrey Pines Road    ","city":"San Diego","state":"CA","full_state_name":"California","postal_code":"92037","country":"US","full_country_name":"United States","lat":32.8984,"lng":-117.243,"phone_number":"858-554-4900"}]},{"id":62,"name":"Scripps Clinic Rancho San Diego ","parent_id":2,"descendant_ids":[159,160],"url":"/locations/scripps-clinic__scripps-clinic-rancho-san-diego","addresses":[]},{"id":118,"name":"Scripps Coastal Medical Center Vista","parent_id":98,"descendant_ids":[],"url":"/locations/scripps-coastal-medical-center__scripps-coastal-medical-center-vista","thumbnail":"//www.scripps.org//sparkle-assets/images/ptn_scripps-coastal-vista-130-cedar-rd_1300x800.jpg","addresses":[{"id":8970,"name":"Cedar Road","address":"130 Cedar Road ","city":"Vista","state":"CA","full_state_name":"California","postal_code":"92083","country":"US","full_country_name":"United States","lat":33.1867,"lng":-117.284,"phone_number":"760-806-5500"}]},{"id":147,"name":"Scripps Polster Breast Care Center","parent_id":136,"descendant_ids":[],"url":"/locations/specialty-centers__scripps-polster-breast-care-center","thumbnail":"//www.scripps.org//sparkle-assets/images/ptn_scrippspolsterbreastcare_600x375.jpg","addresses":[{"id":385870,"name":"Scripps Polster Breast Cancer Center","address":"9850 Genesee Avenue Suite 170","city":"La Jolla","state":"CA","full_state_name":"California","postal_code":"92037","country":"US","full_country_name":"United States","lat":32.8829,"lng":-117.226,"phone_number":"858-626-5200"}]},{"id":63,"name":"Scripps Clinic Santee","parent_id":2,"descendant_ids":[],"url":"/locations/scripps-clinic__scripps-clinic-santee","thumbnail":"//www.scripps.org//sparkle-assets/images/ptn_scrippsclinicsantee_278-towncenterpkwy_600x375.jpg","addresses":[{"id":7098,"name":"Town Center Parkway","address":"278 Town Center Parkway Suite 105","city":"Santee","state":"CA","full_state_name":"California","postal_code":"92071","country":"US","full_country_name":"United States","lat":32.8441,"lng":-116.985,"phone_number":"619-713-7880"}]},{"id":139,"name":"Scripps Radiation Therapy Center","parent_id":136,"descendant_ids":[],"url":"/locations/specialty-centers__scripps-radiation-therapy-center","thumbnail":"//www.scripps.org//sparkle-assets/images/ptn_scripps-radiation-therapy-center600x375.jpg","addresses":[{"id":116946,"name":"Scripps Radiation Therapy Center","address":"10670 John Jay Hopkins Drive ","city":"La Jolla","state":"CA","full_state_name":"California","postal_code":"92121","country":"US","full_country_name":"United States","lat":32.8965,"lng":-117.241,"phone_number":"858-554-4100"}]},{"id":142,"name":"Scripps Proton Therapy Center","parent_id":136,"descendant_ids":[],"url":"/locations/specialty-centers__scripps-proton-therapy-center","thumbnail":"//www.scripps.org//sparkle-assets/images/ptn_proton-center-exterior-600x375.jpg","addresses":[{"id":215043,"name":"Scripps Proton Therapy Center","address":"9730 Summers Ridge Rd. ","city":"San Diego","state":"CA","full_state_name":"California","postal_code":"92121","country":"US","full_country_name":"United States","lat":32.8933,"lng":-117.17,"phone_number":"858-549-7400"}]},{"id":148,"name":"Scripps Clinic Sorrento Valley","parent_id":2,"descendant_ids":[],"url":"/locations/scripps-clinic__scripps-clinic-sorrento-valley","addresses":[{"id":397598,"name":"Scripps Clinic Division of Mental Health","address":"5405 Morehouse Drive Suite 100","city":"San Diego, CA","state":"CA","full_state_name":"California","postal_code":"92121","country":"US","full_country_name":"United States","lat":32.8932,"lng":-117.201,"phone_number":"858-554-6394"}]},{"id":64,"name":"Scripps Clinic Torrey Pines","parent_id":2,"descendant_ids":[],"url":"/locations/scripps-clinic__scripps-clinic-torrey-pines","thumbnail":"//www.scripps.org//sparkle-assets/images/ptn_scrippsclinictorreypines_10666northtorreypinesrd_600x375.jpg","addresses":[{"id":7099,"name":"Torrey Pines","address":"10666 North Torrey Pines Road ","city":"La Jolla","state":"CA","full_state_name":"California","postal_code":"92037","country":"US","full_country_name":"United States","lat":32.8984,"lng":-117.243,"phone_number":"858-554-9100"}]},{"id":154,"name":"Scripps Center for Executive Health","parent_id":136,"descendant_ids":[],"url":"/locations/specialty-centers__scripps-center-for-executive-health","thumbnail":"//www.scripps.org//sparkle-assets/images/ptn__mg_9976.jpg","addresses":[{"id":610561,"name":"Scripps Center for Executive Health","address":"9850 Genesee Avenue, Suite 520 ","city":"La Jolla","state":"CA","full_state_name":"California","postal_code":"92037","country":"US","full_country_name":"United States","lat":32.8829,"lng":-117.226,"phone_number":"800-345-1130"}]},{"id":145,"name":"Scripps Alcohol and Drug Treatment Program","parent_id":136,"descendant_ids":[],"url":"/locations/specialty-centers__scripps-alcohol-and-drug-treatment-program","addresses":[{"id":310584,"name":"Scripps Alcohol and Drug Treatment Program","address":"9609 Waples St. ","city":"San Diego","state":"CA","full_state_name":"California","postal_code":"92121","country":"US","full_country_name":"United States","lat":32.9036,"lng":-117.181,"phone_number":"858-404-8700"}]},{"id":131,"name":"Scripps Center for Integrative Medicine","parent_id":136,"descendant_ids":[],"url":"/locations/specialty-centers__scripps-center-for-integrative-medicine","thumbnail":"//www.scripps.org//sparkle-assets/images/ptn_location-scripps-center-for-integrative-medicine-10820-north-torrey-pines-road-600x375.jpg","addresses":[{"id":27787,"name":"Scripps Center for Integrative Medicine","address":"10820 North Torrey Pines Road ","city":"La Jolla","state":"CA","full_state_name":"California","postal_code":"92037","country":"US","full_country_name":"United States","lat":32.9003,"lng":-117.243,"phone_number":"858-554-3300"}]},{"id":144,"name":"Scripps Whittier Diabetes Institute","parent_id":136,"descendant_ids":[],"url":"/locations/specialty-centers__scripps-whittier-diabetes-institute","thumbnail":"//www.scripps.org//sparkle-assets/images/ptn_whittierdiabetesinstitute_600x375.jpg","addresses":[{"id":253244,"name":"Scripps Whittier Diabetes Institute","address":"10140 Campus Point Drive ","city":"San Diego","state":"CA","full_state_name":"California","postal_code":"92121","country":"US","full_country_name":"United States","lat":32.8873,"lng":-117.222,"phone_number":"877-944-8843"}]},{"id":138,"name":"Scripps Diabetes Center","parent_id":136,"descendant_ids":[],"url":"/locations/specialty-centers__scripps-diabetes-center","thumbnail":"//www.scripps.org//sparkle-assets/images/ptn_scrippsmercychulavistaoutpatientrehab_450-4th-st_600x375-_copy.jpg","addresses":[{"id":116945,"name":"Scripps Diabetes Center","address":"450 4th Avenue Suite 407","city":"Chula Vista","state":"CA","full_state_name":"California","postal_code":"91910","country":"US","full_country_name":"United States","lat":32.6349,"lng":-117.083,"phone_number":"858-678-7050"}]},{"id":143,"name":"Scripps Mercy Clinic","parent_id":136,"descendant_ids":[],"url":"/locations/specialty-centers__mercy-clinic","thumbnail":"//www.scripps.org//sparkle-assets/images/ptn_mercyclinic_4020fifthavenue_600x375.jpg","addresses":[{"id":230215,"name":"Scripps Mercy Clinic","address":"4020 Fifth Avenue  Suite 301","city":"San Diego","state":"CA","full_state_name":"California","postal_code":"92103","country":"US","full_country_name":"United States","lat":32.7504,"lng":-117.161,"phone_number":"619-260-7022"}]}]
